name,latitude,longitude
Samudra Beach,8.3962303,76.9732065
ACHRA BEACH,16.178434,73.4419682
Colva Beach,15.2756507,73.9137265
Arossim Beach,15.3351328,73.8929125
Nattika Beach,10.4199651,76.0822793
Arnala Beach,19.4508895,72.748848
Sanguthurai Beach,8.100211,77.4252729
Cansaulim Beach,15.3267818,73.8960344
Utorda Beach,15.3196353,73.898934
Fatrade Beach,15.2079045,73.9326021
Varca Beach,15.2321443,73.9259238
Betalbatim Beach,15.2931923,73.9077452
Zalor Beach,15.2006619,73.9345138
Sunset Beach,15.3010263,73.9050309
Unnamed Beach,17.5450936,73.5057366
chettuwa azhimugam,10.5089029,76.0398722
Choottad Beach,12.0024529,75.2538756
Elephant Beach,12.0113061,92.949336
Aguada Rocky Beach,15.4918737,73.768097
Unnamed Beach,32.2822348,77.1552603
Cove Kagala,14.5099467,74.3585747
Taj Resort Private Beach,11.9834073,92.9551754
Unnamed Beach,21.24276,81.5953405
Unnamed Beach,12.0104534,75.2140134
Baby Beach,11.858941,75.3602352
Unnamed Beach,11.6210851,92.616804
Unnamed Beach,9.3113977,76.3818124
Unnamed Beach,12.7960202,74.8467101
കാര ബീച്,10.233344,76.1458495
kattoor beach,9.5582204,76.3054694
Arattuvazhi Beach,8.5544406,76.8498357
Unnamed Beach,11.3943034,75.7133053
Unnamed Beach,8.6117224,76.8032985
Unnamed Beach,9.532458,76.3095994
Unnamed Beach,9.5199189,76.3118486
Chettikulam Anuvijay Beach,8.1558865,77.6345854
Pallithura Beach,8.546367,76.8563746
"Muthalappozhi (Crocodile) Beach, Perumathura",8.6309114,76.7859878
Unnamed Beach,9.4940772,76.3177605
Unnamed Beach,9.5808444,76.3013886
Unnamed Beach,9.5127431,76.3134384
Azhithala Beach,12.2024369,75.1199059
Unnamed Beach,12.336627,75.0644404
Unnamed Beach,9.2582867,76.4070859
Unnamed Beach,12.593758,74.9369096
Unnamed Beach,12.6086257,74.9300743
Unnamed Beach,8.7893078,76.6828828
Bordi Beach,20.0997836,72.7326657
Unniyal Beach,10.9183312,75.8823613
Dwarka Beach,22.237475,68.9625617
Unnamed Beach,14.0460053,80.1452663
Coastal Guard Police Station,10.911478,79.8423591
Mannalamkunnu Beach,10.65777,75.9692985
CHIMBAI BEACH,19.0562212,72.8237183
Unnamed Beach,16.0629425,73.4550068
Unnamed Beach,10.0277262,76.6580191
Unnamed Beach,10.5493385,92.5438128
Unnamed Beach,9.7479386,76.2841375
Unnamed Beach,10.0484426,76.2050004
Unnamed Beach,9.4894998,76.31866
Unnamed Beach,26.2978102,75.709243
ozhinjavalappu beach,12.2650614,75.0945468
Unnamed Beach,11.8533211,75.3647805
Unnamed Beach,10.6743232,75.9612633
Kala Patthar Beach,11.9797046,93.0167555
Unnamed Beach,27.156231,74.5445444
Serenity,11.97058,79.8446243
Unnamed Beach,17.7818938,83.3860873
Pulicat Beach,13.4209255,80.3283291
Calm Beach,13.4079683,80.3288334
Koraikuppam Beach,13.3823151,80.3335171
Green Beach,13.3634355,80.338449
Nandagaon Beach,19.7595197,72.6851114
Puthupattu Beach,12.0519005,79.8787339
Hollywood Farm Beach,12.0439669,79.8749586
Kalapet beach,12.0285136,79.8674431
kodikal beach,11.477731,75.6173485
Arupadaiveedu Temple Beach,12.9890268,80.269678
Perumpally,9.1668435,76.4493693
Butterfly beach,15.0195635,74.001783
Firefly beach,15.0183013,74.0069766
Rocks Beach,19.1302869,72.8131105
Blue Flag Beach,12.8023552,80.248694
Promenade,11.9321674,79.8360554
Unnamed Beach,30.72281,76.8614514
Kollam Beach,8.8737809,76.5928666
Kovalam Beach,8.3950997,76.9729934
Tondavali-Talashil Beach,16.1198143,73.4572187
Hamsaladeevi / Palakayatippa Beach,15.9568327,81.1151262
Potti Subbaiaha Palem  Beach,15.7522105,80.3482439
Vodarevu Beach,15.7942976,80.4127953
Dhaya Sea View Point,11.9460581,79.838507
Pondy Sunrise Beach,11.946103,79.8380746
Onturu Beach,18.9434486,84.6588816
Kothapeta Beach,18.604179,84.3765745
Bhavanapadu Beach,18.5702263,84.3568995
Geddalapadu Beach,18.4760057,84.2557067
Unnamed Beach,27.0726421,94.2996665
Unnamed Beach,27.0766924,94.2960746
Unnamed Beach,26.9522208,94.7045625
Eden Beach - Blue flag Beach,11.8814489,79.8243838
Unnamed Beach,26.4205569,92.8613147
Thanthadi Beach,17.5256033,83.0651442
Beach View Point,17.5253231,83.0661245
Rambilli Beach,17.445919,82.9304908
Odalarevu Beach,16.4133333,81.9772632
Kihim Beach,18.7242274,72.8646857
Awas Beach,18.7660584,72.8645629
Alibag Beach,18.6391092,72.8717996
Puthupattinam Beach,10.2847747,79.331671
Chirala beach,15.7754894,80.3828623
DASHASWAMEDH GHAT,25.4442376,81.8852899
custom,21.2017711,72.8388582
IISER Beach,19.1967799,84.8438966
Kodi Beach Sasthan,13.4844203,74.6885085
Kattady Beach Chethy,9.6192943,76.2957682
Chethy beach,9.6230559,76.2952209
Ramachandrapuram  Beach,15.7205113,80.3130599
Suryalanka Beach,15.8398861,80.5088304
Dokulapadu Beach,18.7124474,84.4666433
Unnamed Beach,20.9453792,71.5113432
"Marina Beach,Chennai",13.0533969,80.2833328
"Mahabalipuram Beach, Tamil nadu",12.6092262,80.1956658
"Covelong Beach,Tamil Nadu",12.7721654,80.2519111
Marine Beach,17.9320754,73.0543183
Okha Madhi Beach,22.0830459,69.1018142
Unnamed Beach,12.8540232,74.8319651
Metweld,23.0781911,72.5031213
Dwarka Beach,22.2346361,68.9664007
mobai,18.3176354,74.3769741
Muthu Nagar New Beach,8.8075229,78.1622319
New Wandoor,11.595935,92.6080554
Unnamed Beach,24.8042022,85.0193866
chhath ghat,25.7258534,85.1805293
Unnamed Beach,16.9511152,82.2655057
kappil,12.4258699,75.0112564
trikkanad beach,12.4117837,75.0214056
kodi beach,12.4206931,75.013568
Star Inn Resort,21.6632741,87.7043328
NITK Beach,13.0140453,74.7877809
Unnamed Beach,12.8629032,74.8200474
Guhagar Beach,17.4854379,73.1864809
Niladri Beach,19.7979799,85.8355354
Munakkal Beach,10.180663,76.1619929
Chintapalli beach,18.0735501,83.6572565
Unnamed Beach,8.55175,76.8522517
Kothakulam Beach,10.3856054,76.0960345
Pebble beach,34.8499481,76.8277724
Mukka,13.0348196,74.7838364
Marina Beach,13.0525821,80.2848399
Santhome Beach,13.0260614,80.2785099
Cherai Beach,10.1441876,76.1773418
Girgaum Chowpatty Beach,18.9543869,72.8114236
Bogmalo Beach,15.3695215,73.8326852
Manori Aum Beach,19.2037523,72.7832414
Mahim Beach,19.0440764,72.8381529
Unnamed Beach,16.8273637,73.2961759
Unnamed Beach,16.8658117,73.2932791
Bhatye Beach,16.9745264,73.2944083
Valmiki Nagar Beach,12.9789844,80.2676515
Ramakrishna Beach,17.712103,83.3221954
Unnamed Beach,17.0705958,80.1591758
Unnamed Beach,17.0756992,80.1610292
Unnamed Beach,17.0341054,80.1663856
Unnamed Beach,17.0322024,80.168962
Unnamed Beach,17.0150527,80.1670993
Unnamed Beach,17.0612936,80.1579693
Unnamed Beach,16.9991875,80.1749673
Unnamed Beach,17.0515121,80.1581902
Unnamed Beach,17.0460505,80.1645093
Unnamed Beach,17.0875173,80.1701043
Unnamed Beach,16.866931,80.2754478
Unnamed Beach,16.8472248,80.2812632
Unnamed Beach,16.8282131,80.2906586
Unnamed Beach,16.8265625,80.2947013
Unnamed Beach,16.8581087,80.2803741
Unnamed Beach,16.8341329,80.284985
Unnamed Beach,16.8421296,80.2846492
Unnamed Beach,16.8755082,80.2760995
Unnamed Beach,16.8170011,80.293526
Gahirmatha Beach,20.6416521,86.9396254
Miramar Beach,15.4766808,73.8067377
Unnamed Beach,15.4586296,73.7939933
Unnamed Beach,15.4592887,73.7928479
Marivel Beach,15.4558278,73.7976608
Hawaii Beach,15.4547269,73.805504
Vanguinim Beach,15.4550028,73.814312
Unnamed Beach,15.4545441,73.8216489
Unnamed Beach,15.4535949,73.8283039
Unnamed Beach,15.454271,73.8256079
Odxel Beach,15.4523454,73.8327446
Cacra Beach,15.4506547,73.8374498
Odxel,15.453577,73.8300142
Unnamed Beach,15.4515883,73.8348366
Unnamed Beach,15.4502535,73.8431369
Ozran Beach,15.5939779,73.7341296
Small Vagator Beach,15.5976558,73.7336081
Big Vagator Beach,15.6022668,73.7334766
Cansaulim beach,15.354845,73.881309
Unnamed Beach,12.6179682,80.1986584
Unnamed Beach,12.6129171,80.197992
Unnamed Beach,19.2678524,72.783935
Kollam Beach,8.8743069,76.5892033
Papanasam Beach,8.7360844,76.702566
Unnamed Beach,30.1252195,78.3300787
Unnamed Beach,30.1342148,78.338581
Subramaniya Swamy Kovil Beach,8.4925148,78.127172
Thiruchendur Beach,8.477737,78.1134595
Triveni Sangam,8.0779651,77.550625
Anjuna Beach,15.576145,73.7398429
Sinquerim beach,15.5013628,73.767299
Unnamed Beach,15.5676338,73.7418238
Dream Beach,15.6058279,73.7327886
Aguada Beach,15.4989471,73.7671188
Chapora beach,15.6067975,73.7394997
Aguada Beach,15.4979401,73.7662836
Agonda Beach,15.0413681,73.9854405
Patnem Beach,14.9969971,74.0322483
Rajbag Beach,14.9890916,74.0370853
Manappadu Beach,8.3704263,78.0589416
கொட்டிவாக்கம் கடற்கரை,12.9697602,80.2657106
Unnamed Beach,12.9602334,80.263616
കോവളം ബീച്ച്,8.388753,76.9751294
Palm Shore Beach,8.3817866,76.98238
Unnamed Beach,23.6811263,68.5268057
Unnamed Beach,22.8285223,69.2851492
Mandvi Beach,22.8259809,69.3292857
Juhu Beach,19.102949,72.8230573
Coco Beach,15.4997793,73.7901818
Unnamed Beach,11.4243762,76.6642427
Unnamed Beach,11.4220489,76.6681389
Unnamed Beach,11.4220792,76.6679877
Unnamed Beach,11.4245635,76.6642999
Unnamed Beach,11.4218682,76.6680581
Unnamed Beach,11.4219444,76.6680203
Morjim Turtle Beach,15.6218704,73.7308118
Ashvem Beach,15.6494061,73.7163789
Unnamed Beach,13.5792062,74.6747739
Unnamed Beach,30.1241329,78.318478
kottapuram beach,10.5914166,75.9980844
Murudeshwara Beach,14.0971544,74.4862533
Rabindranath Tagore Beach,14.8167402,74.1246754
Gomtimata Beach,20.7084154,70.8846297
Kodidhar Beach,20.7018514,70.9111146
Nagoa Beach,20.7066718,70.9192439
Lonesome Beach,20.7030357,70.8990428
Surathkal Beach,12.9994666,74.7908637
Unnamed Beach,11.570628,92.269649
Unnamed Beach,11.5944418,92.219015
Unnamed Beach,11.5946159,92.2144196
Kapu Beach,13.2187322,74.7386801
Nandivade Beach,17.2862905,73.2023765
Unnamed Beach,17.2388402,73.2329247
Unnamed Beach,17.1619307,73.2611637
Unnamed Beach,17.2667126,73.2208679
Ullal Beach,12.8115099,74.8410962
Unnamed Beach,17.2510874,73.227514
Unnamed Beach,17.2160035,73.2432135
Malgund Beach,17.1791555,73.2549766
Kalacha Beach,15.6979108,73.6971366
Mandrem Beach,15.6600908,73.7136985
Harmal Beach,15.6793153,73.705762
Chavakkad Beach,10.5695713,76.0088967
Unnamed Beach,14.8584114,74.1518488
Aksa Beach,19.1854466,72.7956837
Versova beach,19.1300516,72.8133526
Madh Beach,19.151039,72.7867132
Unnamed Beach,19.1400704,72.8047003
Unnamed Beach,19.6810929,72.7065563
Unnamed Beach,19.7004204,72.7098865
Unnamed Beach,19.6874077,72.7086371
Unnamed Beach,19.7130538,72.7060528
புதுச்சேரி கடற்கரை,11.9329732,79.8361459
La plage de Pondichéry,11.9266801,79.8348185
Unnamed Beach,11.9239188,79.8341009
Unnamed Beach,12.640806,80.2043702
Corbyns Cove Beach,11.6428293,92.746873
Unnamed Beach,10.5153046,92.4924374
Unnamed Beach,15.9474406,75.8180417
Unnamed Beach,17.2739866,73.2140305
Lighthouse Beach,8.3853265,76.978087
Marjoda Beach,15.3200372,73.8983101
Unnamed Beach,15.2447905,73.9232375
Unnamed Beach,15.242586,73.9236404
Unnamed Beach,15.2425961,73.9238972
Unnamed Beach,15.242476,73.9234977
Unnamed Beach,15.2426375,73.9244646
Unnamed Beach,15.2433261,73.9235345
Unnamed Beach,15.2448038,73.9236645
Unnamed Beach,15.2416052,73.9244445
Unnamed Beach,15.2422082,73.924209
Unnamed Beach,15.2419209,73.9243271
Unnamed Beach,15.2453951,73.9234802
Akshi Beach,18.6248851,72.888958
Nagaon Beach,18.5950309,72.9022415
Revadanda Beach,18.5625563,72.9174191
Unnamed Beach,18.6653492,72.8646404
Unnamed Beach,11.1466025,92.7292322
Unnamed Beach,11.3101246,92.7121143
Bodhi Beach,11.9706088,79.8446202
Chiwla Beach,16.0658645,73.4615256
"KOLAMB BEACH, MALVAN",16.0757874,73.4642713
TALASHIL BEACH,16.1278103,73.4540306
Unnamed Beach,16.1843293,73.4403983
Apaiwadi Beach,16.2331038,73.4221726
Keundla Beach,16.2096471,73.4278375
Munage beach,16.2140384,73.4269551
Dagarewadi Beach,16.2928014,73.4055269
Tambaldegh Beach,16.2804165,73.4100021
Unnamed Beach,19.8732506,72.6806203
Unnamed Beach,18.1755127,72.9840732
Unnamed Beach,18.1999725,72.9761361
Unnamed Beach,16.9389326,73.2862343
Wayangani Beach,16.9339497,73.2865441
Dhamale Beach,16.5520749,73.3232501
Beach Near Vijaydurg,16.5512662,73.3189103
Beach Near Vijaydurg,16.5306516,73.3159089
GIRYE MINI BEACH,16.5137301,73.3232045
Beach Near Vijaydurg,16.5414124,73.3135566
KUNKESHWAR BEACH,16.3256492,73.3950274
Murud Beach,18.3267923,72.9557942
Auroville Beach,11.9855056,79.8490258
Unnamed Beach,18.0699464,72.9999526
Unnamed Beach,18.2219733,72.9478978
Unnamed Beach,14.7420485,74.1861248
Unnamed Beach,14.734425,74.2033674
Unnamed Beach,14.7368707,74.2071694
Dhareshwar beach,14.3843806,74.4021446
Kashid Beach,18.4443919,72.9015336
Unnamed Beach,18.4122748,72.9075829
Unnamed Beach,18.4148947,72.9075715
Unnamed Beach,18.4206062,72.9076653
Kanam Beach,11.8476655,75.3933126
Mapilla Beach,11.855872,75.3726415
Muzhappilangad Beach,11.794446,75.4409548
Unnamed Beach,14.0609866,74.4932558
Unnamed Beach,17.2546084,78.3874689
Dharmadam Beach,11.7744189,75.455033
Unnamed Beach,11.857028,75.3835306
Payyambalam Beach,11.8725935,75.3501609
Adikadalayi Beach,11.8449172,75.3956098
Panambur Beach,12.9387733,74.8038416
Chithrapura Beach,12.9505364,74.8012519
"Silver Beach, Devanampattanam",11.7354331,79.7861515
Cola Beach,15.0592023,73.96995
Talpona Beach,14.9780679,74.041441
Chota Cola Beach,15.0652397,73.9668424
Baina beach,15.3877047,73.8057232
Unnamed Beach,15.0548026,73.9718691
Galgibaga Beach,14.9657705,74.0462448
Guhagar Beach,17.4913788,73.1846965
Vadarevu beach,15.7942603,80.4129789
Unnamed Beach,17.3804874,73.2079178
Unnamed Beach,17.3700767,73.2163859
Marbela Beach,15.6370277,73.7208742
Unnamed Beach,15.025844,73.9876427
Belekan Beach,14.5206967,74.3461005
Paramankeni,12.3580373,80.0753014
Chandrabhaga Beach,19.8653376,86.112197
Unnamed Beach,19.1615566,72.7832772
Unnamed Beach,17.2554498,73.2257759
Unnamed Beach,14.7599728,74.1115631
Delta Beach,13.4459557,74.6939149
Ariyaman Beach,9.2935165,79.0888507
Unnamed Beach,11.1286961,72.7212371
Bambolim Beach,15.4498561,73.8511951
Siridao Beach,15.4383472,73.8604651
Unnamed Beach,17.4342686,82.9048253
Unnamed Beach,17.4159307,82.8675114
Unnamed Beach,17.4116022,82.8561186
Unnamed Beach,15.3733383,73.8207742
Hansa Beach,15.3761096,73.8133165
Canaguinim Beach,15.1274491,73.940386
Little Canaguinim Beach,15.1192793,73.940603
Cabo de Rama Beach,15.1041955,73.9250709
Kakolem Beach,15.0730046,73.9545065
parappalli beach,11.4501373,75.6769013
Sunset Point,20.7038549,70.9760007
Jallandhar Beach,20.7100881,70.9873693
Caranzalem Beach,15.4632402,73.8011928
Paradise Beach,11.8698393,79.8197494
Govind Nagar Beach,12.0295726,93.0017635
Unnamed Beach,18.6380399,72.8770365
Unnamed Beach,18.6472515,72.8672464
Unnamed Beach,23.4170104,88.3939189
Unnamed Beach,23.4134409,88.3806637
Unnamed Beach,23.4125778,88.3805534
Gosvami Ghat,23.4207718,88.3853931
Prabhupad Ghat,23.4220645,88.3858364
Unnamed Beach,17.3881377,73.1912673
Unnamed Beach,17.3875598,73.1990222
Unnamed Beach,17.4073256,73.1768283
Unnamed Beach,8.2186167,77.185309
Unnamed Beach,8.2567215,77.1465168
Thengapattnam Beach,8.2227132,77.1821532
Ashok Beach,8.3968903,76.972806
Kasarkod Eco Beach,14.2615132,74.4321062
Thirumullavaram Beach,8.8947548,76.553433
Azheekal Beach,9.1318478,76.4640572
കോഴിക്കോട് കടൽത്തീരം,11.2555003,75.7692179
Beach #5,12.0230668,93.006637
Konad Beach,11.2762371,75.7627174
Unnamed Beach,11.0116778,79.8550567
Tharangambadi - Danish Fort Beach,11.0219974,79.8552866
Unnamed Beach,10.2749676,79.8242349
Neravy Beach,10.9013398,79.8529392
Unnamed Beach,18.0675801,72.9971395
Chowpati,21.630509,69.6091805
Thottada Beach,11.8359738,75.4054585
Madban Beach,16.5784071,73.3424534
New Digha,21.6179549,87.508099
Unnamed Beach,30.1256765,78.3235164
Arakkal Beach,11.6424928,75.560564
Unnamed Beach,30.1205723,78.3897679
Unnamed Beach,30.1209489,78.3836453
Unnamed Beach,30.1196289,78.3799811
Unnamed Beach,30.1312131,78.3313007
Unnamed Beach,30.1333056,78.3320184
Old Digha,21.6221678,87.5240589
Old Digha,21.6223835,87.5250138
Digha Mohona,21.627463,87.5403781
Unnamed Beach,21.6436732,87.6075983
Tannirbhavi Beach,12.8965348,74.8127606
Unnamed Beach,13.2003033,80.3210277
Ponnani Beach,10.7819762,75.9132736
Honey Beach Honnebail,14.616419,74.279117
Unnamed Beach,14.6486283,74.282514
Unnamed Beach,10.8302133,72.1807244
Unnamed Beach,10.8355895,72.1831864
Unnamed Beach,10.8483888,72.1884578
Unnamed Beach,10.8610771,72.1917389
Lagoon Beach,10.8780867,72.2020696
sport's beach,10.8332164,72.1804907
Unnamed Beach,10.8741339,72.1979065
Nadukuppam Beach,11.9688358,79.8438782
Unnamed Beach,11.963595,79.842333
Unnamed Beach,11.9745282,79.8450956
Unnamed Beach,11.9992654,79.8548001
Unnamed Beach,14.5216937,74.3508781
Uppada Beach,17.082144,82.3417991
Unnamed Beach,18.1190045,72.9770587
Unnamed Beach,18.1106695,72.9799475
Unnamed Beach,18.1328331,72.9730991
Unnamed Beach,18.2685504,84.049704
Unnamed Beach,18.2291748,83.9770909
Unnamed Beach,18.1674734,83.8392394
Unnamed Beach,18.1951255,83.9032946
Unnamed Beach,18.1222848,83.7443804
Unnamed Beach,15.8282818,80.4856184
Unnamed Beach,18.3875318,72.9244513
Unnamed Beach,17.4947404,83.0060389
Unnamed Beach,17.4816867,82.9984857
Unnamed Beach,15.3435981,80.112205
Kotha patnam beach,15.4181687,80.1622165
Shankhumugham Beach,8.482591,76.908473
Candolim Beach,15.5178808,73.7628995
Unnamed Beach,17.740448,83.3465495
Colva Beach,15.2853619,73.9101723
Benaulim Beach,15.2532505,73.9200151
Cavelossim Beach,15.171046,73.9422615
Varca Beach,15.218242,73.9297659
Tarkarli beach,16.0036926,73.489606
Polem beach,14.9079723,74.0816112
Ramanagindi beach,14.3630884,74.4053484
Heaven Beach,14.5114872,74.3587289
Sunset Beach,8.0793987,77.5311664
Sunrise Beach,8.0783633,77.5513996
Hussain Bele,14.5080447,74.35523
Alvekodi Beach,14.4080354,74.3959848
Vannalli beach,14.4268069,74.3841174
Kagala Beach,14.4904673,74.3636468
Gudeangadi Beach,14.4683155,74.372777
Mangodlu beach,14.4327086,74.3833369
Unnamed Beach,14.4961356,74.3624405
Unnamed Beach,12.0131064,79.8605157
Belambar beach,14.6379234,74.2843955
Unnamed Beach,14.5185,74.3361977
Unnamed Beach,30.1137625,78.4312467
Unnamed Beach,30.1090668,78.43676
Unnamed Beach,30.1339032,78.413719
Unnamed Beach,30.1370673,78.406402
Unnamed Beach,30.1323226,78.3917399
Unnamed Beach,30.1297816,78.3916808
Unnamed Beach,30.1213122,78.4205001
Unnamed Beach,30.126789,78.4196472
Unnamed Beach,30.1364652,78.3985388
Ranpar Beach,16.8946807,73.298036
Aare Ware Beach,17.0575374,73.2845941
Unnamed Beach,17.8680702,73.0799094
Unnamed Beach,17.8513284,73.0873324
Secret Beach,14.5057051,74.3545166
Dias Beach,15.4533855,73.8013148
Paradise Beach,15.7562691,73.6634361
Unnamed Beach,14.7110401,74.2413871
Butterfly Beach,15.0194652,74.0016404
Honeymoon Beach,15.0214976,73.9966495
palappetty beach,10.7052703,75.9484671
Cave Beach,14.5141455,74.3586566
Mandarmani,21.6757145,87.7330573
Unnamed Beach,8.0811431,77.5517291
Unnamed Beach,15.9396595,73.5181046
Unnamed Beach,15.9403107,73.5179939
Unnamed Beach,15.9683032,73.5022459
Unnamed Beach,15.9828874,73.4955815
Koyilandi Beach,11.4498959,75.6803028
Apsara Konda Beach,14.2318263,74.4418882
Unnamed Beach,14.215457,74.449354
Kumta Beach,14.4186425,74.3898459
Unnamed Beach,28.1814671,94.1499884
Unnamed Beach,28.1767857,94.1546019
Unnamed Beach,28.8776551,96.3723399
Unnamed Beach,13.3807623,74.6721489
Unnamed Beach,13.3803775,74.6737409
Unnamed Beach,13.3792111,74.6723418
Mahé Beach,11.6990798,75.532465
Hosabettu Beach,12.9733708,74.7966653
Unnamed Beach,13.9820785,74.5200961
New Thannirbhavi Beach,12.8853705,74.8151444
Punnapra Beach,9.4463384,76.3293526
Unnamed Beach,7.946713,93.315555
Unnamed Beach,7.9279363,93.3250071
Unnamed Beach,7.9829796,93.3211575
Unnamed Beach,8.008224,93.3351083
Unnamed Beach,8.010813,93.3418702
Unnamed Beach,27.9116594,97.1077634
Azhimala Beach,8.3513619,77.0198826
Unnamed Beach,8.7608713,76.6867185
Unnamed Beach,8.7592096,76.6877937
Unnamed Beach,8.7549421,76.6903156
Unnamed Beach,27.5171862,92.0331567
Unnamed Beach,9.3065963,79.0579504
Unnamed Beach,10.7040414,79.8529317
Sasihitlu Beach,13.0688375,74.7771415
Palapetty Beach,10.3617453,76.1050363
Snehatheram,10.4322969,76.0770147
Unnamed Beach,12.1454845,92.9574358
Unnamed Beach,12.0416667,92.9803026
Unnamed Beach,12.0422313,92.9814872
Unnamed Beach,12.0422928,92.9820309
Beach #2,12.0378913,92.9902634
Merk Bay,12.2910434,92.9339639
Lalaji Beach,12.4045323,92.9454598
Unnamed Beach,26.4253219,87.6717244
Unnamed Beach,11.3062243,92.7046564
Kadle beach,14.4430181,74.3815009
Holanagadde beach,14.4526856,74.3784874
Unnamed Beach,14.3449559,74.4088045
Thoothukudi Harbour Beach,8.7445554,78.1715215
Unnamed Beach,15.7522962,73.662689
Karaikal Beach,10.9169156,79.8531027
Unnamed Beach,19.7748295,72.6875921
Unnamed Beach,19.740894,72.6934098
Aravali beach,15.7753946,73.6586322
Mochemad Beach,15.7986206,73.6522888
Unnamed Beach,21.2573092,69.954515
Amanakkanvilai Beach,8.1226557,77.5623353
Vattakkottai Fort Beach,8.12462,77.5648834
Vattakottai Beach,8.1269151,77.5671133
Unnamed Beach,8.1289765,77.5695391
Unnamed Beach,8.1123062,77.3812012
Unnamed Beach,8.0895924,77.4784683
Sanguthurai Beach,8.1006722,77.4312151
Unnamed Beach,8.084929,77.5051449
Unnamed Beach,8.0883897,77.4845615
Unnamed Beach,8.1244208,77.3422137
Unnamed Beach,8.1190007,77.3622395
Unnamed Beach,8.1657107,77.2697111
Unnamed Beach,8.1542644,77.2890068
Unnamed Beach,8.1288538,77.3072619
Unnamed Beach,8.1271591,77.3100205
Unnamed Beach,8.1239285,77.3144334
Unnamed Beach,8.1236486,77.3191358
Unnamed Beach,8.1237266,77.3249879
Kombuthurai Beach,8.5866269,78.1375672
Kayalpattinam Beach,8.5655425,78.1333666
Veerapandiyan Pattanam Beach,8.5291323,78.1262576
Thoomaiyarpuram Beach,8.1903035,77.761441
Unnamed Beach,8.2014068,77.7734211
Unnamed Beach,8.2141922,77.783067
Unnamed Beach,8.2205747,77.7837436
Bhairavar Temple Beach,8.5036072,78.1263159
Unnamed Beach,8.1781856,77.2383378
Unnamed Beach,8.1850724,77.2311924
Unnamed Beach,8.1819967,77.2346793
Unnamed Beach,8.1763417,77.2415187
Unnamed Beach,8.1739696,77.2462812
Unnamed Beach,8.1881361,77.229327
Unnamed Beach,8.2892095,77.1017891
Unnamed Beach,8.3258342,77.0542009
"പൊഴിയൂർ കടൽത്തീരം, പൂവാർ",8.3001133,77.0872208
Ganpatipule Beach,17.1468627,73.2653362
Unnamed Beach,17.1582851,73.2634455
Unnamed Beach,21.6350854,69.5885784
Carter Road Beach,19.0691298,72.8225029
Unnamed Beach,8.275083,73.0212628
Somnath Beach,20.885172,70.4047733
Unnamed Beach,27.6210547,91.8088831
Rushikonda Beach,17.7817655,83.3856645
Unnamed Beach,27.6905727,92.2999035
Unnamed Beach,27.6898281,92.2995192
Unnamed Beach,11.9045406,79.8302021
Cuddalore Old Town Beach,11.7120457,79.7809529
Sunset View Beach,11.7014686,79.7791857
Talanguda Beach,11.7707642,79.7942633
Unnamed Beach,11.7758378,79.7948108
Unnamed Beach,20.4151039,72.8298648
Paradip Beach,20.2543511,86.6657613
Unnamed Beach,19.2762029,84.9344892
St.Andrews Beach,8.5584365,76.8463316
Juhu Beach,19.1221398,72.8190771
Unnamed Beach,10.5617979,72.6323694
Unnamed Beach,10.5688649,72.6360833
Thottappally Beach,9.3159714,76.3797914
Kanwathirtha beach,12.7430362,74.8705307
Vengurla Beach,15.837261,73.6289951
Kondura Beach,15.8896133,73.5991408
Ubhdanda Beach,15.8762089,73.6058087
Kalavi Beach,15.9076106,73.5886306
Khavane Beach,15.9189033,73.566379
MITH MUMBAREEY BEACH,16.3526944,73.3881193
KOHL BEACH,16.3624364,73.377093
TARUMUMBARI BEACH,16.3606936,73.3816308
Devgarh Beach,16.3735532,73.3713609
PHANSE BEACH,16.4357094,73.3580035
PADAVANE BEACH,16.4125071,73.3652508
SURUCHI BEACH,16.4759269,73.3410331
JAITAPUR AND KUVESHI BEACH,16.6144464,73.3512148
BCH NEAR AMBOLGAD,16.6378006,73.3357814
VAITHAY BEACH,16.6884737,73.3289123
GAVKHADI BEACH,16.8003197,73.316743
Unnamed Beach,16.8239953,73.2969792
Unnamed Beach,17.8843432,73.0731315
be,16.0276567,73.4854575
Tarkarli beach,16.0147289,73.489187
Marari Beach,9.6035321,76.2979467
Zanzavat Beach,16.573033,73.3449653
Belambar beach,14.6284108,74.2820727
Parappanangadi Beach,11.0555698,75.8481221
Saamiyaar Pettai Beach,11.5499597,79.7598825
Shankarpur,21.6355142,87.5643584
Tajpur,21.6511204,87.6249895
Yekuvuru Beach,18.8562665,84.5833272
Malpe Beach,13.3618276,74.6978876
Unnamed Beach,17.7316202,83.3438717
Unnamed Beach,18.3151358,84.113948
Lalaji Beach,12.3993629,92.9430713
Lakshmanpur Beach 1,11.8479537,93.0136281
Bharatpur Beach,11.8378667,93.0326742
Unnamed Beach,12.8106034,80.2481923
Unnamed Beach,12.0286442,79.8677155
Hoode Beach,13.4075438,74.6970509
Kuzhupilly Beach,10.109453,76.1872762
Munambam Beach,10.1760455,76.1656038
Puthuvype Beach,9.9986848,76.2183407
Unnamed Beach,16.2886527,81.3971834
Unnamed Beach,10.3737498,76.1004255
Unnamed Beach,10.2984234,76.1274597
Unnamed Beach,10.3020691,76.1261173
Unnamed Beach,10.2936229,76.12878
Unnamed Beach,10.4272391,76.079018
Unnamed Beach,17.0925665,73.2853478
Unnamed Beach,26.413917,87.2395965
Unnamed Beach,12.3883911,75.038641
Kameswaram Beach,10.6235899,79.8544837
Unnamed Beach,19.7896363,85.8094602
Unnamed Beach,19.8099671,85.8793426
Unnamed Beach,17.7619103,83.3628818
Unnamed Beach,17.7551974,83.3536902
Jodugulla Palem Beach,17.7518427,83.3514127
Kakinada Beach Park,17.0210636,82.2921475
Kakinada Beach park,17.0196354,82.2918097
Sitapur Beach,11.8189936,93.0570806
Unnamed Beach,11.1510026,75.810642
Unnamed Beach,11.1492831,75.8138563
Unnamed Beach,18.5032956,84.2885752
Nazareth Beach,9.945188,76.2416438
Unnamed Beach,9.9637613,76.2376124
Unnamed Beach,9.9569521,76.2376862
Unnamed Beach,9.9556035,76.2379047
Unnamed Beach,9.954655,76.2382038
Unnamed Beach,9.9536103,76.2385914
Unnamed Beach,9.952391,76.2389924
Unnamed Beach,18.9877696,84.6975745
Unnamed Beach,19.0286645,84.7291401
kavilpuzha mini beach,9.684354,76.6154971
Unnamed Beach,21.6234731,88.3930423
Unnamed Beach,21.6638885,88.3818351
Unnamed Beach,21.6628896,88.3820228
Unnamed Beach,21.6282391,88.4269708
Unnamed Beach,21.6207309,88.413854
Shivrajpur Beach,22.3438585,68.9558038
Unnamed Beach,19.3097544,84.9720959
Unnamed Beach,11.2188277,75.8755671
Unnamed Beach,9.590936,76.2999624
Unnamed Beach,28.1704926,94.1569229
Kalapathar Beach,10.658314,92.5817835
Unnamed Beach,16.6728942,73.3307707
Bandwadi Beach,16.6278175,73.3410922
Unnamed Beach,18.3943707,84.1792255
Unnamed Beach,18.6499497,84.4178261
Unnamed Beach,19.0739591,84.7597549
Unnamed Beach,19.084034,84.7669288
Unnamed Beach,12.3834507,75.0425158
Unnamed Beach,9.6242867,76.2959541
Unnamed Beach,10.4243486,76.0803729
Unnamed Beach,10.4196369,76.0821938
Nattika Beach,10.4117921,76.0854183
Unnamed Beach,10.3656096,76.1037493
Unnamed Beach,10.3816784,76.0976487
Unnamed Beach,10.387776,76.0949054
valapad beach,10.4005859,76.089946
Unnamed Beach,10.4076795,76.0871796
Unnamed Beach,10.4406853,76.0734351
Unnamed Beach,10.4498599,76.0694348
Unnamed Beach,10.4527739,76.0682099
Unnamed Beach,10.4529499,76.068179
Unnamed Beach,10.4541902,76.0674175
Unnamed Beach,10.455742,76.0668771
Unnamed Beach,10.4571664,76.0661573
vadanapilly beach,10.4595459,76.0651197
Unnamed Beach,10.4611673,76.0642774
Unnamed Beach,10.461946,76.0637883
Unnamed Beach,10.4652613,76.06209
Unnamed Beach,10.4660565,76.0614638
Unnamed Beach,10.4683917,76.0601003
Unnamed Beach,10.4703212,76.0590625
Unnamed Beach,10.4756313,76.0564812
Unnamed Beach,11.2899352,75.7579274
Unnamed Beach,9.2582698,76.4070243
Unnamed Beach,11.2412052,76.0478346
Unnamed Beach,21.6622262,88.3821854
Unnamed Beach,22.3217433,88.8073502
Unnamed Beach,24.349159,81.5757557
Dindi Beach,15.8758183,80.7259901
Xandrem Beach,14.9382974,74.0457029
Grandmother's Hole Beach,15.4059885,73.7863638
Unnamed Beach,12.4824805,74.9813787
Unnamed Beach,12.4697165,74.98966
kavalipuzha mini beach,9.6821721,76.6245823
Unnamed Beach,11.8375477,93.0401297
Unnamed Beach,11.8207,93.0355297
Ramnagar Beach,11.8167306,93.042946
Lakshmanpur Beach 3,11.8262422,93.0288979
Lakshmanpur Beach 2,11.8295802,93.0153457
Unnamed Beach,11.8309637,93.0177748
Unnamed Beach,11.8297693,93.0219708
Unnamed Beach,11.8447117,93.0194217
Unnamed Beach,11.835718,93.0139916
Vellankanni Beach,10.6813005,79.8526132
Unnamed Beach,10.7912106,75.9107887
Edakad beach,11.8236537,75.4158675
Unnamed Beach,10.2917395,76.1292305
Unnamed Beach,10.2854611,76.1307272
Unnamed Beach,8.7504234,78.1918244
Valappu Beach,10.0082821,76.216044
Danda Beach,19.0813637,72.8244632
Unnamed Beach,20.9176309,70.344193
Unnamed Beach,20.9015207,70.3769671
Unnamed Beach,20.8991965,70.3701315
Unnamed Beach,19.1979409,72.7971016
Unnamed Beach,12.025951,79.8645987
Unnamed Beach,12.0271144,79.8646362
Unnamed Beach,16.0463299,73.4717047
Unnamed Beach,9.7478479,76.2847246
Unnamed Beach,9.2830433,79.2115371
Unnamed Beach,12.2229282,92.930086
Unnamed Beach,12.2124259,92.9347432
Unnamed Beach,11.5826162,92.5788653
Unnamed Beach,11.5826163,92.5771362
Unnamed Beach,16.2657589,73.4131376
Unnamed Beach,16.2522281,73.4162046
Vypeen Beach,9.9727356,76.2406444
Unnamed Beach,10.7861453,75.9296303
Unnamed Beach,10.7778329,75.9168941
Unnamed Beach,30.0338345,79.6450423
Unnamed Beach,30.0301297,79.6485644
Unnamed Beach,30.0286136,79.6527384
Unnamed Beach,30.0274695,79.6532733
Unnamed Beach,30.0257251,79.657352
Unnamed Beach,30.0253447,79.6554036
Unnamed Beach,30.0226852,79.662523
Unnamed Beach,30.0235013,79.6635592
Unnamed Beach,30.0222757,79.6660773
Unnamed Beach,30.0229805,79.6677333
Unnamed Beach,30.0229909,79.6688319
Unnamed Beach,30.0220466,79.6703899
Unnamed Beach,30.0383679,79.6333197
Unnamed Beach,30.038201,79.6319248
Unnamed Beach,30.038588,79.6298402
Unnamed Beach,30.034404,79.6379703
Mandarmani,21.6529108,87.6687771
Mandarmani,21.6664795,87.71201
Mandarmani,21.6865382,87.7522323
Unnamed Beach,21.6627978,87.7025692
Unnamed Beach,21.663171,87.7036475
Unnamed Beach,30.0330097,79.5585669
Unnamed Beach,30.0349798,79.565691
Unnamed Beach,30.0379169,79.5676222
Unnamed Beach,30.0395041,79.5683422
Unnamed Beach,10.5582353,72.6404145
Unnamed Beach,8.3758915,76.9941846
Unnamed Beach,9.1665371,79.4293976
Unnamed Beach,9.1589011,79.4409084
Unnamed Beach,10.9454858,72.3148766
Unnamed Beach,9.2703244,79.3194554
Unnamed Beach,25.3147423,91.7029697
Unnamed Beach,22.8191879,69.3653185
Unnamed Beach,22.8188075,69.3529506
Unnamed Beach,22.819189,69.3523531
Unnamed Beach,22.819936,69.3526977
Unnamed Beach,22.820723,69.3530161
Unnamed Beach,22.8212931,69.3494053
Unnamed Beach,13.1222414,80.3003076
Unnamed Beach,13.0739961,80.2924958
Unnamed Beach,11.9211776,79.8334522
Unnamed Beach,11.1645579,75.802026
Unnamed Beach,11.1568505,75.8016249
Unnamed Beach,17.1058523,73.2802248
Mandavi Beach,16.9907056,73.2839879
Unnamed Beach,9.0138039,76.5195073
Unnamed Beach,9.018888,76.5184854
Unnamed Beach,9.0209965,76.5177201
Unnamed Beach,9.0224724,76.5166314
Unnamed Beach,18.8016611,72.8851057
Unnamed Beach,18.7997345,72.8921593
Unnamed Beach,18.8026999,72.8753496
Unnamed Beach,18.8006277,72.8686325
Polem Hidden Beach,14.9106031,74.0775329
Prabhadevi Beach,19.0185323,72.8255113
Unnamed Beach,14.0262707,74.5023805
Unnamed Beach,13.9640154,74.5384442
Unnamed Beach,13.6414674,74.6656336
Unnamed Beach,13.7981926,74.6243034
Unnamed Beach,13.7898634,74.626132
Unnamed Beach,8.7650643,78.2008612
Dadar Beach,19.0219216,72.8302099
Unnamed Beach,8.3803402,76.9841872
Hollant Beach,15.3694975,73.8621501
Unnamed Beach,6.8210001,93.8634592
Unnamed Beach,8.2379076,77.1703479
Unnamed Beach,7.2870103,93.8457346
Unnamed Beach,30.2986827,79.0907185
Unnamed Beach,30.3051217,79.0987469
Unnamed Beach,30.3046257,79.1011448
Unnamed Beach,30.3032795,79.1095797
Unnamed Beach,30.3020478,79.1091083
Unnamed Beach,30.2993519,79.117166
Unnamed Beach,30.3010613,79.1198669
Unnamed Beach,9.5866739,76.300407
Unnamed Beach,9.526781,76.3105953
Unnamed Beach,9.1729826,76.4460091
Unnamed Beach,9.1717851,76.4465744
Unnamed Beach,9.307901,76.3840338
Unnamed Beach,9.6717878,76.2909523
Unnamed Beach,9.6770504,76.290947
Unnamed Beach,9.693391,76.2897591
Unnamed Beach,9.6963366,76.2891436
Arthunkal beach,9.6613294,76.2915126
Unnamed Beach,9.7485506,76.2842536
Thumpoly Beach,9.5196921,76.3117427
Unnamed Beach,9.6321201,76.2954495
Unnamed Beach,9.6261751,76.2957794
Unnamed Beach,9.8018809,76.2747873
Unnamed Beach,9.7955359,76.2755162
Unnamed Beach,9.7871372,76.2778585
Unnamed Beach,9.8137259,76.2728898
Unnamed Beach,9.5969859,76.298974
Unnamed Beach,9.6125895,76.2965771
Unnamed Beach,9.6209905,76.2951848
Unnamed Beach,9.6282787,76.2955538
Kattoor Beach,9.5598701,76.3053182
Kattoor Beach,9.5670364,76.303636
Unnamed Beach,9.5770348,76.3019198
Unnamed Beach,10.1000109,76.189287
Unnamed Beach,10.105426,76.1881635
Perumpally Beach,9.1678383,76.4485897
Padubidri,13.1160909,74.7658692
Unnamed Beach,9.7989643,76.2746724
Ubhrat Beach,21.0165397,72.7289511
Unnamed Beach,10.7930921,75.9093125
Unnamed Beach,11.5904218,92.2153301
Unnamed Beach,11.523341,92.2515068
Puthanthodu Beach,9.8694451,76.2628171
Fort Kochi Beach,9.9671362,76.2398467
Unnamed Beach,9.9654943,76.238028
Zone 1,9.9661164,76.2385337
Unnamed Beach,15.7046456,73.6937892
Udaypur Beach,21.6108018,87.4847669
Unnamed Beach,19.0731193,73.0698645
Unnamed Beach,19.0732032,73.0693104
South Anjuna Beach,15.5692014,73.7417748
Unnamed Beach,13.9237788,74.5838823
Shiroor Beach,13.9060308,74.5901953
Quegdevelim Beach,15.4974488,73.7983391
Kegdole Beach,15.49653,73.8079105
Unnamed Beach,15.5000168,73.8203372
Unnamed Beach,21.5222419,87.1501717
Unnamed Beach,21.4998709,87.1045253
Unnamed Beach,21.4788991,87.0785479
Unnamed Beach,19.2968565,84.9616464
Unnamed Beach,15.7499562,73.6602187
Unnamed Beach,15.7482511,73.6588293
Unnamed Beach,18.3132125,72.9634781
Unnamed Beach,18.3022382,72.9688686
Unnamed Beach,15.4065899,73.8328236
Unnamed Beach,19.2419436,72.7675701
Unnamed Beach,18.2757919,72.937854
Unnamed Beach,18.2570501,72.940857
Unnamed Beach,21.3092914,86.8906253
Unnamed Beach,18.2195174,72.9399081
Unnamed Beach,8.4729631,76.9170056
Unnamed Beach,8.2441834,77.1625155
Unnamed Beach,8.243031,77.164062
Unnamed Beach,8.2416594,77.1656237
Uddo Beach,15.6197058,73.7511655
Uddo Beach,15.6177074,73.7538751
Unnamed Beach,11.269347,75.7645247
Unnamed Beach,19.0381367,72.8379982
Devghali Beach,16.7265486,73.3100434
Mervi Beach,16.83861,73.2939964
Unnamed Beach,14.3356661,80.16171
Unnamed Beach,14.3117669,80.1523659
Unnamed Beach,13.2448185,80.3364651
Kurli Beach,16.9566811,73.2915755
Pondy Marina Beach,11.9110704,79.8290638
Thoppuvilai Beach,8.3282575,77.9649165
Unnamed Beach,8.3419569,77.9882765
Unnamed Beach,8.4250625,78.0709627
Unnamed Beach,9.2770501,79.15284
Unnamed Beach,27.0791124,88.4315491
Unnamed Beach,26.420986,92.86141
Unnamed Beach,30.291798,79.1204083
Unnamed Beach,30.2900504,79.1215957
Unnamed Beach,30.2896089,79.1240915
Unnamed Beach,30.2879829,79.1281302
Unnamed Beach,30.2915494,79.1443328
Unnamed Beach,30.2990232,79.1463477
Unnamed Beach,30.2996508,79.1469268
Unnamed Beach,30.3002603,79.146732
Unnamed Beach,18.5241144,72.9104842
Charankattu Beach,9.6451021,76.2940338
Thiruvizha Beach,9.640537,76.2945353
Unnamed Beach,9.7408152,76.2846716
Unnamed Beach,9.7382188,76.2848817
Unnamed Beach,9.6527075,76.29303
Unnamed Beach,12.8609349,74.8204884
Alappuzha Beach,9.4823244,76.320024
Odalarevu Beach,16.4134223,81.9787171
Nandana Roc Beach,22.1296439,69.2932226
Manginapudi Beach,16.248997,81.2453712
Arattuvazhi,9.7281074,76.2861067
Unnamed Beach,10.0444275,72.2881241
Azheekkal Chennam,9.6506018,76.2933724
Unnamed Beach,15.201509,73.9337519
Unnamed Beach,15.2042632,73.9326964
Thalai Beach,11.7310212,75.5082729
Punnaikayal Beach,8.6333567,78.1280381
Unnamed Beach,10.9848119,75.8657643
Unnamed Beach,10.187775,76.1599832
Unnamed Beach,15.6332375,73.7665614
Unnamed Beach,8.6265569,76.7907335
Unnamed Beach,8.614159,76.8011367
Unnamed Beach,8.5853226,76.8244636
Unnamed Beach,8.5967845,76.8151639
Edavanakkadu Beach,10.0813201,76.1947188
Pazhangadu Puthan Kadappuram,10.0833495,76.1942498
Karave Beach,19.012769,73.0035349
Aalanthalai Beach,8.4635527,78.0996179
Kulasekharapatnam Beach,8.3985918,78.0596317
Periyathalai Beach,8.332493,77.9712708
Kuttam Beach,8.3081002,77.9440922
Kooduthalai Beach,8.2995379,77.9286467
Koottappanai Beach,8.2894716,77.90778
Karasuthu Uvari Beach,8.2854308,77.9004941
Uvari Beach,8.2751996,77.8904146
Kunadal Beach,8.2567926,77.8495765
Kodavilai Beach,8.252272,77.8379517
Navaladi Beach,8.2498931,77.8295954
Tōṭṭaviḷai Beach,8.2374421,77.800252
Vijaya Pathi Beach,8.1882969,77.7581445
Idinthakarai West Beach,8.1738728,77.7357988
Kudankulam Kappaladi Beach,8.1612976,77.6805751
Panjal Beach,8.1586517,77.6593186
Perumanal Beach,8.1583062,77.6468531
Chettikulam Beach,8.1512105,77.6160274
Ethankadu Beach,8.1418921,77.5908103
Chettikulam Pannai Beach,8.1488247,77.6084647
Rasthakaadu Beach,8.1366955,77.5798977
Leepuram Beach,8.1118758,77.557695
Mullakkadu Beach,8.7342922,78.1637452
Tharuvai Kulam Beach,8.8919661,78.1780759
Pattanamarudur Beach,8.9217222,78.1856404
Sippikulam Beach,8.9947578,78.2540994
Keelavaipar Beach,9.0006701,78.2626461
Kalaignanapuram Beach,9.0105181,78.2782553
Pachaiyapuram,9.0589883,78.3464629
Vembar Beach,9.0773425,78.3663936
North Vembar Beach,9.0798701,78.3689616
Suganya Beach,9.0872187,78.3780618
Mangala Beach,9.0940685,78.386744
Sayalkudi Beach,9.1275963,78.4801122
Mariyur Beach,9.1364557,78.5368115
Ervadi Beach,9.1964658,78.7192651
Sethu Kkarai Beach,9.2482699,78.8434549
Kasim Beach,9.2545631,78.9116432
Kadalkuli Beach,9.2627436,78.921133
Nochiyurani Beach,9.2668564,79.0353496
Uchipuli Beach,9.3226501,79.0283583
Attangarai Beach,9.348886,78.9952278
Alagankulam Beach,9.3697992,78.9732575
Panaikulam Beach,9.384411,78.9593376
Puduvalasai Beach,9.3981783,78.9468631
Athiyuthu Beach Area,9.4177765,78.9304392
Palanivalasai Beach,9.4259204,78.9247248
Kallamoli Beach,8.4439841,78.0841492
Muthuregunathapuram Beach,9.5058158,78.9142351
Morpannai Beach,9.6081426,78.9351773
Karankkadu Beach,9.6476775,78.9660477
Mullimunai Beach,9.6583979,78.9705091
Pattinam Becah,9.681646,78.9771568
M.R. Pattinam Beach,9.7629818,79.0374035
Kodiyakkarai,10.0410827,79.2583896
Keelathottam Beach,10.297829,79.3719646
Vedaranyam Beach,10.3760345,79.8712483
Arukattuthurai Beach,10.3914475,79.8690578
Pushpavanam Beach,10.4530175,79.8637761
Vellapanam Beach,10.5198798,79.8614709
Vanavanmahadevi Beach,10.5301001,79.8607806
Poovai Beach,10.64465,79.8539956
Seruthur Beach,10.6743136,79.8517504
Akkaraipettai Beach,10.7509407,79.8509092
Nambiyar Nagar Beach,10.7777939,79.8508702
Nagapattinam Beach,10.7860469,79.8504713
Nagore Beach,10.8137956,79.850779
Pattinacherry Beach,10.8827076,79.8519998
Kilinjalmedu Beach,10.9456014,79.8528202
Akkampettai Beach,10.97121,79.853527
Emerald Beach,10.9806163,79.8539374
Chandirapadi Beach,10.9995011,79.854655
Tharangambadi Beach,11.0283084,79.8561788
Poompuhar Beach,11.1477318,79.8575943
Tirumullaivasal Beach,11.2374851,79.8474872
New Beach,11.2485527,79.8453681
Toduvai Beach,11.2722312,79.8406185
Kolaiyar Beach,11.2936382,79.8371201
Chinnakottaimedu Beach,11.3048944,79.836018
Kotayamedu Beach,11.3228527,79.8351913
Mandavamedu Beach,11.3319417,79.8360655
Palaiyar Beach,11.3533475,79.8311438
Kodiyampalaiyam Beach,11.3837069,79.8214919
Chidambaram Beach,11.4079046,79.814153
Chinna Vaaikaal Beach,11.4490838,79.800873
Chinnur Puthupettai Beach,11.5184957,79.7700112
Silver Beach,11.5265988,79.7659824
Annapan Pettai Beach,11.5730541,79.7575967
Reddiyar Pettai Beach,11.5781608,79.7574628
Ayyampettai Beach,11.5880539,79.7568148
Alapakkam Beach,11.5981023,79.7580487
Periyakuppam Beach,11.6054794,79.7580857
Alapakkam Private Beach,11.6101579,79.7590791
Nanjai Beach,11.6137337,79.7595307
T. M. Pettai Beach,11.6202155,79.7603893
Chitrai Pettai Beach,11.6383605,79.763491
Raasapettai Beach,11.6820246,79.7725867
Sangolikuppam Beach,11.6881405,79.7741183
Narambai Beach,11.8114619,79.8011042
Panitithu Beach,11.8273968,79.8053544
Nallavadu Beach,11.8566433,79.8133738
Chettinagar Rock Beach,12.1036061,79.909916
Chettinagar Beach,12.1125055,79.9158626
Anumanthai Kuppam Beach,12.120575,79.9211406
French Beach,12.1443002,79.9360334
Thirtavari Beach,12.1949039,79.9698652
Marakkanam Beach,12.2264918,79.9903937
Alambarai Beach,12.2692375,80.0148205
Unnamed Beach,15.5640114,73.7427215
Unnamed Beach,11.9383077,79.837081
Unnamed Beach,22.0537996,69.1276141
Unnamed Beach,22.0745342,69.1088869
Unnamed Beach,22.0894375,69.0981933
Unnamed Beach,22.1133927,69.1699379
Unnamed Beach,16.2410956,80.8210778
Unnamed Beach,15.6081059,73.7337377
CKF Beach,15.4211101,73.8944432
Unnamed Beach,15.4308629,73.8676131
Agassaim Beach,15.4295022,73.8875346
Ashvem Beach,15.6465285,73.7169018
Muzhapilangad Beach,12.196261,75.1220421
Chembirika Rock and Beach,12.4501394,74.9988539
Unnamed Beach,22.2289172,68.9703818
Unnamed Beach,22.2122082,68.982432
Unnamed Beach,22.1529286,69.0370708
Unnamed Beach,15.5849155,73.7370417
Aasare Beach,13.390741,74.6965835
Odayam Beach,8.7504239,76.6935167
Neelangarai Beach,12.9480081,80.2616212
Unnamed Beach,11.5746745,92.2702807
Unnamed Beach,26.3413227,90.1055032
Unnamed Beach,22.1004758,87.9638265
Elamkunnappuzha Beach,10.0238548,76.2121575
Jampore Beach,20.3908225,72.8274916
Tiruvottiyur Beach,13.1622244,80.3086213
Cheriyapozhi Beach,9.5541329,76.3060871
Payyoli Meladi Beach,11.5126937,75.6087591
Unnamed Beach,16.0446071,73.4621765
Unnamed Beach,16.0470752,73.4651685
Ottummal Beach,11.0522547,75.8489818
Unnamed Beach,11.0647999,75.8458019
Alungal Beach;Chettipadi Beach,11.0696162,75.844684
Kovalam Beach,12.7904289,80.2516235
Kanhangad Kadappuram,12.2529704,75.0996498
Veerampattinam Beach,11.8903926,79.8265068
Unnamed Beach,18.0422446,73.0089583
Kondvil Beach,18.0870592,72.9943934
Black Sand Beach,8.7450787,76.6973081
Varkala Beach,8.7332481,76.7053316
Varkala South Beach,8.7262371,76.7111185
Unnamed Beach,8.7165376,76.7192077
Gokarna Beach,14.5517928,74.3103794
Gokarna Kamala Beach,14.5889436,74.2953275
Om Beach,14.5190762,74.3222646
Half Moon Beach,14.5179657,74.3311445
Paradise Beach,14.5181468,74.3374201
Kudle Beach,14.5282686,74.3152939
Gangavali beach,14.6026072,74.2913478
Unnamed Beach,14.5718909,74.3025193
Radhanagar Beach,11.9827332,92.9485873
Unnamed Beach,12.3666195,92.9197962
Unnamed Beach,12.3617339,92.9263404
Unnamed Beach,23.6918464,68.2306918
Unnamed Beach,23.6806227,68.2546144
Unnamed Beach,23.6798545,68.251033
Unnamed Beach,23.6838171,68.2383468
Unnamed Beach,23.7245874,68.1997171
Baga Beach,15.5575058,73.7504905
Calangute Beach,15.5423823,73.7555215
Tulum Beach,15.5627044,73.7447547
Unnamed Beach,19.4621627,72.7495699
Unnamed Beach,15.9394751,73.5155899
Bhogave/Kolwel Beach,15.9544224,73.5061245
Unnamed Beach,10.8671137,79.8521708
Unnamed Beach,8.7648857,76.6841426
Unnamed Beach,8.7686201,76.6821819
Majali Beach,14.8713413,74.1069726
Colomb Beach,15.0024559,74.0275151
Palolem Beach,15.0086661,74.0203046
Unnamed Beach,14.518043,74.3260663
Unnamed Beach,10.9479008,72.3192231
Thaikal Beach,9.7078754,76.2879368
Unnamed Beach,10.3355583,76.1146827
Munda Pahar beach,11.4913022,92.7083386
Unnamed Beach,12.0001188,93.0092644
Kalapathar Beach,11.9765587,93.0189161
Elephant Beach,12.0101153,92.9438471
Unnamed Beach,12.0026934,92.9322982
Unnamed Beach,23.7088929,68.2175364
Unnamed Beach,23.7160553,68.2070803
Unnamed Beach,10.8183079,73.6721099
Unnamed Beach,10.816855,73.6968543
Unnamed Beach,11.7844702,93.0819226
Veraval Beach,20.9095692,70.3554207
Unnamed Beach,20.9168794,70.3457916
Unnamed Beach,17.0054317,73.2822285
Unnamed Beach,20.4240656,85.8877262
Unnamed Beach,20.3950119,85.9205914
Unnamed Beach,20.3683631,85.9655408
Unnamed Beach,20.3751923,85.950429
Unnamed Beach,20.3859863,85.9455138
Unnamed Beach,20.3854532,85.9354433
Unnamed Beach,20.4509537,85.8812951
Unnamed Beach,20.4584749,85.8650055
Unnamed Beach,20.4497286,85.862895
Elliots Beach,12.9978864,80.2730281
Unnamed Beach,11.2174575,75.7824203
Unnamed Beach,8.5295042,76.8698238
Veli Beach,8.5161248,76.8803655
Unnamed Beach,8.4919849,76.9003285
Kochuveli Beach,8.5026092,76.8911069
Querim beach,15.7127337,73.6921249
Unnamed Beach,30.2874563,79.13591
Unnamed Beach,9.6423901,76.2943205
